[
  { "key": "hcmc", "name": "Ho Chi Minh City", "lat": 10.8231, "lon": 106.6297, "color": 5260767, "employees": 127, "stats": "127 Team Members | 8 Departments | 3 AI Models Active", "role": "SIMON DATA LAB HQ" },
  { "key": "singapore", "name": "Singapore", "lat": 1.3521, "lon": 103.8198, "color": 16711935, "employees": 42, "stats": "FinTech Partner Hub", "role": "FinTech Partner Hub" },
  { "key": "bangkok", "name": "Bangkok", "lat": 13.7563, "lon": 100.5018, "color": 16711903, "employees": 36, "stats": "EdTech Accelerator", "role": "EdTech Accelerator" },
  { "key": "jakarta", "name": "Jakarta", "lat": -6.2088, "lon": 106.8456, "color": 16711680, "employees": 58, "stats": "Enterprise Clients", "role": "Enterprise Clients" },
  { "key": "kualalumpur", "name": "Kuala Lumpur", "lat": 3.1390, "lon": 101.6869, "color": 16776960, "employees": 28, "stats": "Cloud Infrastructure", "role": "Cloud Infrastructure" },
  { "key": "berlin", "name": "Berlin", "lat": 52.52, "lon": 13.4050, "color": 65280, "employees": 2300, "stats": "European Data Center | 2.3K Students", "role": "European Data Center" },
  { "key": "sanfran", "name": "San Francisco", "lat": 37.7749, "lon": -122.4194, "color": 255, "employees": 120, "stats": "AI Research Lab | 50 Models Deployed", "role": "AI Research Lab" },
  { "key": "telaviv", "name": "Tel Aviv", "lat": 32.0853, "lon": 34.7818, "color": 10066329, "employees": 40, "stats": "Cybersecurity Division", "role": "Cybersecurity" },
  { "key": "seoul", "name": "Seoul", "lat": 37.5665, "lon": 126.9780, "color": 3355443, "employees": 60, "stats": "Hardware Partners", "role": "Hardware Partners" },
  { "key": "sydney", "name": "Sydney", "lat": -33.8688, "lon": 151.2093, "color": 16711935, "employees": 22, "stats": "Pacific Gateway", "role": "Pacific Gateway" }
]
